City_ID,City,Country,Date,Lat,Lng,Max Temp,Humidity,Cloudiness,Wind Speed
0,Grand-Santi,GF,2021-03-25 21:56:52,4.25,-54.3833,76.06,86,50,4.16
1,Nizhniy Kuranakh,RU,2021-03-25 21:56:52,58.8353,125.4869,6.15,94,100,2.75
2,Rikitea,PF,2021-03-25 21:56:52,-23.1203,-134.9692,79.68,72,69,17.6
3,Jamestown,US,2021-03-25 21:55:33,42.097,-79.2353,68.0,40,1,7.43
4,Yumen,CN,2021-03-25 21:56:53,40.2833,97.2,41.29,37,11,6.53
5,Gurh,IN,2021-03-25 21:56:53,24.5167,81.5167,71.47,16,0,1.59
6,Ushuaia,AR,2021-03-25 21:55:03,-54.8,-68.3,50.0,50,40,24.16
7,Kodiak,US,2021-03-25 21:56:53,57.79,-152.4072,44.6,53,1,3.44
8,Sola,VU,2021-03-25 21:56:54,-13.8833,167.55,82.4,83,40,8.3
9,Marsh Harbour,BS,2021-03-25 21:56:54,26.5412,-77.0636,77.05,76,9,13.85
10,Albany,US,2021-03-25 21:56:25,42.6001,-73.9662,70.0,69,82,1.92
11,Kupang,ID,2021-03-25 21:56:54,-10.1667,123.5833,73.4,100,20,2.3
12,Busselton,AU,2021-03-25 21:56:55,-33.65,115.3333,51.01,95,31,6.8
13,Kapaa,US,2021-03-25 21:56:55,22.0752,-159.319,77.0,83,1,4.61
14,Hobart,AU,2021-03-25 21:56:55,-42.8794,147.3294,59.0,67,20,5.75
15,Washington,US,2021-03-25 21:56:22,47.5001,-120.5015,57.0,38,8,5.01
16,Mar Del Plata,AR,2021-03-25 21:56:56,-38.0023,-57.5575,66.99,100,90,11.5
17,Cayenne,GF,2021-03-25 21:56:56,4.9333,-52.3333,82.4,74,20,10.36
18,Port Alfred,ZA,2021-03-25 21:56:57,-33.5906,26.891,68.27,84,73,15.79
19,Georgetown,MY,2021-03-25 21:52:53,5.4112,100.3354,78.8,94,20,2.3
20,Maningrida,AU,2021-03-25 21:56:57,-12.0667,134.2667,76.51,90,50,5.77
21,Provideniya,RU,2021-03-25 21:56:57,64.3833,-173.3,8.6,78,90,8.95
22,Princeton,US,2021-03-25 21:56:58,25.5384,-80.4089,86.0,62,20,10.36
23,Bandar-E Lengeh,IR,2021-03-25 21:56:58,26.5579,54.8807,78.8,65,5,9.22
24,Sao Filipe,CV,2021-03-25 21:56:58,14.8961,-24.4956,70.43,78,26,14.92
25,Vao,NC,2021-03-25 21:56:59,-22.6667,167.4833,77.18,72,10,16.22
26,Pangai,TO,2021-03-25 21:56:59,-19.8,-174.35,82.4,94,75,5.75
27,Beberibe,BR,2021-03-25 21:56:59,-4.1797,-38.1306,78.8,83,75,2.3
28,Cherskiy,RU,2021-03-25 21:57:00,68.75,161.3,-16.44,95,98,3.89
29,Touros,BR,2021-03-25 21:57:00,-5.1989,-35.4608,75.2,94,75,2.3
30,Hithadhoo,MV,2021-03-25 21:57:00,-0.6,73.0833,83.05,71,13,12.93
31,Arraial Do Cabo,BR,2021-03-25 21:57:01,-22.9661,-42.0278,80.6,78,0,4.61
32,New Norfolk,AU,2021-03-25 21:57:01,-42.7826,147.0587,59.0,72,94,1.01
33,Avarua,CK,2021-03-25 21:57:01,-21.2078,-159.775,86.0,74,40,20.71
34,Vaini,TO,2021-03-25 21:57:02,-21.2,-175.2,80.6,89,75,6.91
35,Katsuura,JP,2021-03-25 21:57:02,35.1333,140.3,52.0,62,0,6.91
36,Qui Nhon,VN,2021-03-25 21:57:02,13.7667,109.2333,73.74,91,99,6.87
37,Hermanus,ZA,2021-03-25 21:57:03,-34.4187,19.2345,73.0,71,91,1.99
38,Hofn,IS,2021-03-25 21:57:03,64.2539,-15.2082,33.39,69,100,11.18
39,Tuktoyaktuk,CA,2021-03-25 21:57:03,69.4541,-133.0374,-0.4,85,75,3.44
40,Geraldton,AU,2021-03-25 21:57:03,-28.7667,114.6,55.4,88,0,9.22
41,Camacha,PT,2021-03-25 21:57:04,33.0833,-16.3333,62.6,88,20,17.27
42,East London,ZA,2021-03-25 21:54:53,-33.0153,27.9116,66.58,88,30,8.9
43,Kemijarvi,FI,2021-03-25 21:57:04,66.7131,27.4306,23.86,95,88,2.53
44,Dikson,RU,2021-03-25 21:57:05,73.5069,80.5464,1.22,96,64,4.99
45,Souillac,MU,2021-03-25 21:57:05,-20.5167,57.5167,75.2,94,40,12.66
46,Hualmay,PE,2021-03-25 21:57:05,-11.0964,-77.6139,73.04,75,41,10.6
47,Acapulco,MX,2021-03-25 21:52:07,16.8634,-99.8901,84.2,65,20,6.91
48,Lagoa,PT,2021-03-25 21:57:06,39.05,-27.9833,56.86,62,3,15.19
49,Lodhikheda,IN,2021-03-25 21:57:06,21.5833,78.8333,78.8,29,0,3.44
50,Bethanien,NA,2021-03-25 21:57:06,-26.502,17.1583,74.48,31,16,6.8
51,Khatanga,RU,2021-03-25 21:57:07,71.9667,102.5,-10.05,98,99,3.02
52,Haines Junction,CA,2021-03-25 21:57:07,60.7522,-137.5108,24.8,39,100,4.61
53,Beringovskiy,RU,2021-03-25 21:57:07,63.05,179.3167,6.3,93,100,4.54
54,Bowen,AU,2021-03-25 21:57:08,-20.0167,148.2333,75.2,94,7,2.3
55,Kvitok,RU,2021-03-25 21:57:08,56.0724,98.4813,18.46,97,75,3.22
56,Punta Arenas,CL,2021-03-25 21:57:08,-53.15,-70.9167,51.8,54,0,32.21
57,Castro,BR,2021-03-25 21:57:09,-24.7911,-50.0119,65.66,94,74,0.38
58,Hamada,JP,2021-03-25 21:57:09,34.8833,132.0833,45.0,12,2,1.01
59,Garissa,KE,2021-03-25 21:57:09,-0.4536,39.6401,82.08,56,59,12.88
60,Faanui,PF,2021-03-25 21:57:09,-16.4833,-151.75,83.35,73,73,20.47
61,Sitka,US,2021-03-25 21:57:10,57.0531,-135.33,39.2,81,90,11.5
62,Balkhash,KZ,2021-03-25 21:57:10,46.844,74.9804,39.16,80,98,14.56
63,Waipawa,NZ,2021-03-25 21:57:10,-41.4122,175.5153,66.2,63,6,14.97
64,Galle,LK,2021-03-25 21:57:11,6.0367,80.217,76.05,82,88,7.99
65,Hilo,US,2021-03-25 21:57:11,19.7297,-155.09,80.6,65,90,10.36
66,Narsaq,GL,2021-03-25 21:57:11,60.9167,-46.05,14.0,37,1,6.91
67,Bredasdorp,ZA,2021-03-25 21:57:12,-34.5322,20.0403,59.0,94,59,2.3
68,Samarkand,UZ,2021-03-25 21:57:12,39.6542,66.9597,66.2,48,75,18.41
69,Meulaboh,ID,2021-03-25 21:57:12,4.1363,96.1285,75.09,90,97,1.74
70,Puerto Ayora,EC,2021-03-25 21:57:13,-0.7393,-90.3518,82.4,74,40,9.22
71,Bluff,NZ,2021-03-25 21:57:13,-46.6,168.3333,57.99,96,98,1.01
72,Kaitangata,NZ,2021-03-25 21:57:13,-46.2817,169.8464,60.75,62,97,3.33
73,Atuona,PF,2021-03-25 21:53:50,-9.8,-139.0333,80.44,75,41,19.37
74,Cidreira,BR,2021-03-25 21:57:14,-30.1811,-50.2056,75.04,82,1,19.55
75,Guanica,PR,2021-03-25 21:57:14,17.9716,-66.908,79.0,81,39,3.0
76,Mirabad,AF,2021-03-25 21:57:14,30.4362,61.8383,79.16,18,4,7.23
77,Lavrentiya,RU,2021-03-25 21:57:15,65.5833,-171.0,4.89,81,29,1.92
78,Nikolskoye,RU,2021-03-25 21:57:15,59.7035,30.7861,35.6,87,56,8.95
79,Chuy,UY,2021-03-25 21:57:15,-33.6971,-53.4616,72.09,89,100,10.27
80,Nome,US,2021-03-25 21:54:44,64.5011,-165.4064,17.01,73,1,6.91
81,Mataura,NZ,2021-03-25 21:57:16,-46.1927,168.8643,57.99,96,80,1.01
82,Mozarlandia,BR,2021-03-25 21:57:16,-14.7447,-50.5706,77.29,70,100,2.01
83,Skjervoy,NO,2021-03-25 21:57:16,70.0311,20.9714,33.8,60,75,4.61
84,Nizwa,OM,2021-03-25 21:57:17,22.9333,57.5333,72.77,42,3,1.45
85,Caravelas,BR,2021-03-25 21:57:17,-17.7125,-39.2481,76.89,81,0,6.58
86,Virginia Beach,US,2021-03-25 21:55:31,36.8529,-75.978,78.8,53,90,11.5
87,Ankeny,US,2021-03-25 21:57:17,41.7297,-93.6058,43.0,87,90,4.61
88,Luganville,VU,2021-03-25 21:57:18,-15.5333,167.1667,81.34,81,78,8.86
89,Sarangani,PH,2021-03-25 21:57:18,5.4033,125.4636,82.02,76,100,19.22
90,Silver City,US,2021-03-25 21:57:18,32.7701,-108.2803,51.8,28,1,18.41
91,Okhotsk,RU,2021-03-25 21:57:19,59.3833,143.3,6.04,93,99,8.41
92,Aksarka,RU,2021-03-25 21:57:19,66.5606,67.7975,31.14,84,100,17.47
93,Saint-Pierre,RE,2021-03-25 21:57:19,-21.3393,55.4781,77.0,83,90,5.75
94,Laguna,US,2021-03-25 21:57:20,38.421,-121.4238,62.6,45,1,9.22
95,Port Lincoln,AU,2021-03-25 21:57:20,-34.7333,135.8667,60.94,69,100,4.88
96,Villarrica,PY,2021-03-25 21:57:20,-25.75,-56.4333,82.6,53,72,2.95
97,Pisco,PE,2021-03-25 21:57:21,-13.7,-76.2167,75.2,64,0,26.46
98,Saldanha,ZA,2021-03-25 21:57:21,-33.0117,17.9442,62.6,88,48,5.75
99,Abu Dhabi,AE,2021-03-25 21:53:51,24.4667,54.3667,84.2,39,0,8.05
100,Jinka,ET,2021-03-25 21:57:21,5.65,36.65,68.07,30,4,1.92
101,Klaksvik,FO,2021-03-25 21:57:22,62.2266,-6.589,41.0,93,75,12.66
102,Barrow,US,2021-03-25 21:57:22,71.2906,-156.7887,-5.8,65,1,12.66
103,Adrar,MR,2021-03-25 21:57:22,20.5022,-10.0711,73.92,6,0,11.92
104,Port Hedland,AU,2021-03-25 21:57:23,-20.3167,118.5667,75.2,94,4,5.75
105,Ilulissat,GL,2021-03-25 21:57:23,69.2167,-51.1,-11.38,96,100,2.62
106,Mount Darwin,ZW,2021-03-25 21:57:23,-16.7725,31.5838,63.25,94,12,0.36
107,Tilichiki,RU,2021-03-25 21:57:24,60.4667,166.1,10.99,90,100,10.33
108,Shimoda,JP,2021-03-25 21:57:24,34.6667,138.95,55.99,69,0,1.99
109,Preobrazheniye,RU,2021-03-25 21:57:24,42.9019,133.9064,35.04,82,55,3.56
110,Mackay,AU,2021-03-25 21:57:24,-21.15,149.2,78.01,94,6,4.61
111,Sambava,MG,2021-03-25 21:57:25,-14.2667,50.1667,77.16,90,99,3.98
112,Essex,US,2021-03-25 21:57:25,40.7834,-74.2163,66.2,72,90,11.5
113,Qaanaaq,GL,2021-03-25 21:57:25,77.484,-69.3632,-18.15,53,10,6.82
114,College,US,2021-03-25 21:57:26,64.8569,-147.8028,30.0,74,90,3.65
115,Bouza,NE,2021-03-25 21:57:26,14.4229,6.0428,82.22,10,87,8.16
116,Hobyo,SO,2021-03-25 21:57:26,5.3505,48.5268,78.6,57,4,13.96
117,Taltal,CL,2021-03-25 21:57:27,-25.4,-70.4833,69.35,72,18,8.1
118,Dingle,PH,2021-03-25 21:57:27,10.9995,122.6711,74.68,93,99,7.54
119,Severnyy,RU,2021-03-25 21:57:27,50.677,36.5532,32.0,74,0,8.95
120,Ponta Do Sol,PT,2021-03-25 21:57:28,32.6667,-17.1,64.99,77,75,9.22
121,Upernavik,GL,2021-03-25 21:57:28,72.7868,-56.1549,-23.96,85,40,4.68
122,Paamiut,GL,2021-03-25 21:57:28,61.994,-49.6678,10.53,90,100,8.7
123,Kahului,US,2021-03-25 21:57:29,20.8947,-156.47,82.4,65,20,5.75
124,Victoria,HK,2021-03-25 21:53:06,22.2855,114.1577,69.01,78,10,22.01
125,Luanda,AO,2021-03-25 21:57:29,-8.8368,13.2343,80.6,83,40,4.61
126,Te Anau,NZ,2021-03-25 21:57:29,-45.4167,167.7167,62.46,65,100,6.58
127,Clyde River,CA,2021-03-25 21:57:30,70.4692,-68.5914,-7.6,77,75,20.71
128,Bethel,US,2021-03-25 21:57:30,41.3712,-73.414,68.0,74,94,3.0
129,Ventspils,LV,2021-03-25 21:57:30,57.3894,21.5606,37.4,100,90,9.22
130,Margate,GB,2021-03-25 21:57:30,51.3813,1.3862,50.0,75,9,5.01
131,Cape Town,ZA,2021-03-25 21:53:50,-33.9258,18.4232,64.0,94,90,10.36
132,Richards Bay,ZA,2021-03-25 21:57:31,-28.783,32.0377,67.41,95,100,9.19
133,Cabo San Lucas,MX,2021-03-25 21:57:31,22.8909,-109.9124,75.0,60,1,11.5
134,Evensk,RU,2021-03-25 21:57:32,61.95,159.2333,4.82,67,100,7.31
135,Quatre Cocos,MU,2021-03-25 21:57:32,-20.2078,57.7625,75.99,94,40,12.66
136,Kamina,CD,2021-03-25 21:57:32,-8.7386,24.9906,64.74,97,100,4.85
137,Yellowknife,CA,2021-03-25 21:57:32,62.456,-114.3525,8.6,52,75,5.75
138,Wheatley,GB,2021-03-25 21:57:33,51.7473,-1.1394,46.4,87,40,12.66
139,Angoche,MZ,2021-03-25 21:57:33,-16.2325,39.9086,74.95,90,24,5.97
140,Joshimath,IN,2021-03-25 21:57:34,30.5667,79.5667,46.35,19,0,9.28
141,Lompoc,US,2021-03-25 21:57:34,34.6391,-120.4579,57.2,62,90,13.8
142,Bengkulu,ID,2021-03-25 21:57:34,-3.8004,102.2655,76.28,83,99,3.53
143,Tasiilaq,GL,2021-03-25 21:57:36,65.6145,-37.6368,3.2,51,75,2.3
144,Torbay,CA,2021-03-25 21:57:36,47.6666,-52.7314,46.4,93,90,3.27
145,Altayskoye,RU,2021-03-25 21:57:36,51.9533,85.3325,30.69,98,100,4.72
146,Port Elizabeth,ZA,2021-03-25 21:57:36,-33.918,25.5701,68.0,88,75,10.36
147,Sept-Iles,CA,2021-03-25 21:57:37,50.2001,-66.3821,34.0,100,90,4.61
148,Butaritari,KI,2021-03-25 21:57:37,3.0707,172.7902,81.09,80,100,14.85
149,Orlik,RU,2021-03-25 21:57:37,52.5178,99.825,1.29,93,38,2.44
150,Kavaratti,IN,2021-03-25 21:57:38,10.5669,72.642,82.18,74,25,1.72
151,Roald,NO,2021-03-25 21:57:38,62.5833,6.1333,44.6,65,0,11.5
152,Eureka,US,2021-03-25 21:57:38,40.8021,-124.1637,52.0,62,20,18.41
153,Namibe,AO,2021-03-25 21:57:39,-15.1961,12.1522,73.22,84,100,6.67
154,Airai,TL,2021-03-25 21:57:39,-8.9266,125.4092,59.86,94,92,1.99
155,Bambanglipuro,ID,2021-03-25 21:57:39,-7.95,110.2833,75.94,89,100,3.78
156,Potrerillos,HN,2021-03-25 21:57:39,15.2333,-87.9667,95.0,46,20,11.5
157,Lebu,CL,2021-03-25 21:57:40,-37.6167,-73.65,56.53,69,3,15.35
158,Iqaluit,CA,2021-03-25 21:57:40,63.7506,-68.5145,-18.0,63,1,14.97
159,Novoagansk,RU,2021-03-25 21:57:40,61.9449,76.6625,22.78,93,100,11.43
160,Mahebourg,MU,2021-03-25 21:57:41,-20.4081,57.7,75.2,94,40,12.66
161,Belmopan,BZ,2021-03-25 21:57:41,17.25,-88.7667,89.01,64,4,9.69
162,Ramon,PH,2021-03-25 21:57:41,16.7842,121.535,70.23,94,6,0.38
163,Guerrero Negro,MX,2021-03-25 21:57:42,27.9769,-114.0611,66.97,44,1,17.78
164,Kavieng,PG,2021-03-25 21:57:42,-2.5744,150.7967,84.11,75,95,13.67
165,Ozernovskiy,RU,2021-03-25 21:57:42,51.5,156.5167,27.9,72,100,5.57
166,Yulara,AU,2021-03-25 21:57:43,-25.2406,130.9889,66.2,72,4,5.46
167,Ulaanbaatar,MN,2021-03-25 21:55:24,47.9077,106.8832,21.2,86,0,4.74
168,Saint-Philippe,RE,2021-03-25 21:57:43,-21.3585,55.7679,77.0,83,90,5.75
169,Raudeberg,NO,2021-03-25 21:57:44,61.9875,5.1352,44.01,79,40,19.73
170,Carnarvon,AU,2021-03-25 21:57:44,-24.8667,113.6333,71.6,64,85,14.97
171,Menongue,AO,2021-03-25 21:57:44,-14.6585,17.691,63.55,93,99,3.8
172,Salalah,OM,2021-03-25 21:57:45,17.0151,54.0924,77.0,69,0,1.14
173,Leningradskiy,RU,2021-03-25 21:57:45,69.3833,178.4167,-12.08,96,97,1.25
174,Iskateley,RU,2021-03-25 21:57:45,67.6803,53.1512,30.06,97,100,9.84
175,Saint George,US,2021-03-25 21:57:46,37.1041,-113.5841,59.0,15,20,19.57
176,Sisimiut,GL,2021-03-25 21:57:46,66.9395,-53.6735,-3.6,98,100,13.44
177,Diu,IN,2021-03-25 21:57:46,20.7141,70.9822,79.36,33,0,8.01
178,Esperance,AU,2021-03-25 21:57:47,-33.8667,121.9,55.4,88,90,4.61
179,Ribeira Grande,PT,2021-03-25 21:57:47,38.5167,-28.7,53.6,76,20,5.75
180,Alta,NO,2021-03-25 21:57:48,69.9689,23.2717,28.4,74,40,5.75
181,Udachnyy,RU,2021-03-25 21:57:49,66.4167,112.4,8.24,96,100,5.35
182,Mzimba,MW,2021-03-25 21:57:49,-11.9,33.6,61.05,95,90,3.71
183,Chantada,ES,2021-03-25 21:57:49,42.6088,-7.7712,48.2,87,75,1.14
184,Vostok,RU,2021-03-25 21:57:50,46.4856,135.8833,23.56,91,99,1.86
185,Bilibino,RU,2021-03-25 21:57:50,68.0546,166.4372,-13.13,87,79,2.77
186,Sioux City,US,2021-03-25 21:57:00,42.5,-96.4003,48.2,61,90,10.36
187,Shangrao,CN,2021-03-25 21:57:50,28.4532,117.9686,54.19,88,0,4.56
188,Diffa,NE,2021-03-25 21:57:51,13.3154,12.6113,80.76,11,16,10.2
189,Comodoro Rivadavia,AR,2021-03-25 21:57:51,-45.8667,-67.5,78.8,11,0,16.11
190,Veraval,IN,2021-03-25 21:57:51,20.9,70.3667,79.3,43,0,9.89
191,Dukat,RU,2021-03-25 21:57:52,62.55,155.55,-12.6,93,99,3.98
192,San Lorenzo,PY,2021-03-25 21:53:00,-25.3333,-57.5333,91.4,55,20,3.44
193,Rio Claro,BR,2021-03-25 21:56:18,-22.4114,-47.5614,86.0,58,20,3.44
194,Knysna,ZA,2021-03-25 21:57:52,-34.0363,23.0471,62.6,94,0,4.61
195,Kesova Gora,RU,2021-03-25 21:57:53,57.5836,37.2922,33.1,96,100,5.75
196,Dunedin,NZ,2021-03-25 21:57:53,-45.8742,170.5036,61.0,77,94,4.0
197,Madang,PG,2021-03-25 21:57:53,-5.2246,145.7966,77.76,90,99,2.98
198,Cravo Norte,CO,2021-03-25 21:57:54,6.3017,-70.2041,81.37,72,96,6.76
199,Wembley,AU,2021-03-25 21:57:54,-31.9333,115.8,57.0,93,0,5.75
200,Hangu,CN,2021-03-25 21:57:54,39.2489,117.7892,55.4,76,100,4.47
201,Shahreza,IR,2021-03-25 21:57:54,32.0339,51.8794,59.92,37,9,23.42
202,Ancud,CL,2021-03-25 21:57:55,-41.8697,-73.8203,61.0,63,0,6.91
203,Marsala,IT,2021-03-25 21:57:55,37.7966,12.4352,50.0,93,0,3.44
204,Itaituba,BR,2021-03-25 21:57:55,-4.2761,-55.9836,73.54,97,100,1.61
205,Noumea,NC,2021-03-25 21:57:56,-22.2763,166.4572,82.99,65,0,3.44
206,Simbahan,PH,2021-03-25 21:57:56,6.3032,120.5836,82.58,78,60,15.37
207,Tha Bo,TH,2021-03-25 21:57:56,17.85,102.5814,84.99,70,66,4.81
208,Carutapera,BR,2021-03-25 21:57:57,-1.195,-46.02,73.06,96,100,3.13
209,Miranda,CO,2021-03-25 21:57:57,3.2499,-76.2281,86.0,51,75,10.36
210,Chokurdakh,RU,2021-03-25 21:57:57,70.6333,147.9167,-30.3,99,92,3.4
211,Arman,RU,2021-03-25 21:57:58,59.7,150.1667,-2.67,77,24,4.16
212,Leo,BF,2021-03-25 21:57:06,11.1,-2.1,85.75,14,100,5.3
213,Vardo,NO,2021-03-25 21:57:58,70.3705,31.1107,32.0,74,75,17.27
214,Kedrovyy,RU,2021-03-25 21:57:58,56.1667,91.8167,23.0,93,40,2.24
215,Sao Miguel Do Araguaia,BR,2021-03-25 21:57:59,-13.275,-50.1628,77.31,65,100,2.13
216,Faya,SA,2021-03-25 21:57:59,18.3851,42.4509,64.4,55,0,5.75
217,Zaozerne,UA,2021-03-25 21:57:59,45.1582,33.2787,37.99,64,100,5.79
218,Aklavik,CA,2021-03-25 21:58:00,68.2191,-135.0107,23.0,46,60,5.75
219,Hailar,CN,2021-03-25 21:58:00,49.2,119.7,34.32,55,100,15.43
220,Asfi,MA,2021-03-25 21:58:00,32.2994,-9.2372,62.91,44,59,18.84
221,Oksfjord,NO,2021-03-25 21:58:01,70.2396,22.3479,33.8,74,40,5.75
222,Golden,US,2021-03-25 21:58:01,39.7555,-105.2211,51.01,22,40,1.03
223,Wonthaggi,AU,2021-03-25 21:58:01,-38.6044,145.5913,57.99,91,55,10.87
224,Fortuna,US,2021-03-25 21:58:01,40.5982,-124.1573,53.01,71,75,17.27
225,Tual,ID,2021-03-25 21:58:02,-5.6667,132.75,83.46,73,89,4.74
226,Nuuk,GL,2021-03-25 21:58:02,64.1835,-51.7216,5.0,66,75,5.75
227,Petropavlovsk-Kamchatskiy,RU,2021-03-25 21:58:03,53.0452,158.6483,17.6,62,17,2.24
228,Atasu,KZ,2021-03-25 21:58:03,48.6814,71.6433,20.03,88,97,11.9
229,Avera,US,2021-03-25 21:58:03,33.194,-82.5271,82.4,51,40,11.5
230,Nakamura,JP,2021-03-25 21:58:03,32.9833,132.9333,49.6,87,16,4.41
231,Tromso,NO,2021-03-25 21:58:04,69.6496,18.957,30.2,93,75,1.14
232,Husavik,IS,2021-03-25 21:58:04,66.0449,-17.3389,26.6,93,90,10.36
233,Saskylakh,RU,2021-03-25 21:58:04,71.9167,114.0833,-21.21,100,99,3.98
234,Chak Jhumra,PK,2021-03-25 21:58:05,31.5678,73.1835,65.1,41,66,6.49
235,Benguela,AO,2021-03-25 21:58:05,-12.5763,13.4055,78.08,84,100,6.46
236,Svetlaya,RU,2021-03-25 21:58:05,46.5389,138.3297,30.97,66,19,4.5
237,Pascagoula,US,2021-03-25 21:58:06,30.3658,-88.5561,75.99,88,90,6.91
238,Chumikan,RU,2021-03-25 21:58:06,54.7183,135.315,7.25,91,65,6.04
239,Gat,IL,2021-03-25 21:58:06,31.61,34.7642,55.0,72,10,3.85
240,Mashhad,IR,2021-03-25 21:58:07,36.297,59.6062,60.8,59,90,11.5
241,Spornoye,RU,2021-03-25 21:58:07,50.8448,37.2913,32.0,74,0,8.95
242,Athens,GR,2021-03-25 21:53:53,37.9795,23.7162,43.0,60,20,4.61
243,Anadyr,RU,2021-03-25 21:58:07,64.75,177.4833,6.8,61,20,6.71
244,Nalchiti,BD,2021-03-25 21:58:08,22.6333,90.2833,74.57,67,20,4.88
245,Beaverlodge,CA,2021-03-25 21:58:08,55.2166,-119.4361,24.8,68,75,8.05
246,Thompson,CA,2021-03-25 21:58:08,55.7435,-97.8558,14.0,62,90,6.91
247,Brusturoasa,RO,2021-03-25 21:58:09,46.5167,26.2,34.0,47,98,3.69
248,Manjacaze,MZ,2021-03-25 21:58:09,-24.7117,33.8828,67.28,93,8,5.19
249,Kantang,TH,2021-03-25 21:58:09,7.4054,99.5156,75.83,90,100,3.38
250,Fuengirola,ES,2021-03-25 21:58:10,36.54,-4.6247,61.0,77,0,2.3
251,Los Llanos De Aridane,ES,2021-03-25 21:58:10,28.6585,-17.9182,69.8,35,0,4.61
252,Tezu,IN,2021-03-25 21:58:10,27.9167,96.1667,70.93,25,75,4.88
253,Charters Towers,AU,2021-03-25 21:58:10,-20.1,146.2667,77.2,66,10,7.96
254,Pavelets,RU,2021-03-25 21:58:11,53.7883,39.246,30.0,52,100,4.88
255,Ewa Beach,US,2021-03-25 21:58:11,21.3156,-158.0072,78.8,83,20,4.61
256,Cerrito,CO,2021-03-25 21:55:11,6.8432,-72.694,71.6,83,75,4.61
257,Lyuban,BY,2021-03-25 21:58:12,52.7985,28.0048,35.65,80,91,3.13
258,Puerto Escondido,MX,2021-03-25 21:58:12,15.85,-97.0667,84.15,53,7,6.96
259,Trat,TH,2021-03-25 21:58:12,12.5,102.5,82.0,99,100,0.83
260,Sakakah,SA,2021-03-25 21:58:12,29.9697,40.2064,59.0,33,0,4.61
261,Farafangana,MG,2021-03-25 21:58:13,-22.8167,47.8333,74.66,85,97,0.4
262,Asau,RO,2021-03-25 21:58:13,46.4333,26.4,34.0,47,100,4.94
263,Aswan,EG,2021-03-25 21:58:13,24.0934,32.907,65.98,22,0,16.31
264,Bubaque,GW,2021-03-25 21:58:14,11.2833,-15.8333,76.93,75,0,20.2
265,Hambantota,LK,2021-03-25 21:58:14,6.1241,81.1185,77.79,84,67,13.85
266,Itarema,BR,2021-03-25 21:58:14,-2.9248,-39.9167,77.54,84,71,7.72
267,Seminole,US,2021-03-25 21:54:15,28.7086,-81.2081,90.0,37,20,11.5
268,Madera,US,2021-03-25 21:56:00,37.1666,-119.8343,55.99,61,40,1.99
269,Sinaloa,MX,2021-03-25 21:57:41,25.0,-107.5,82.99,29,1,8.05
270,Yangliuqing,CN,2021-03-25 21:58:15,39.1375,116.9997,55.4,76,100,4.47
271,Omboue,GA,2021-03-25 21:58:16,-1.5746,9.2618,75.61,87,100,6.29
272,Tamara,HN,2021-03-25 21:58:16,14.15,-87.3333,91.4,24,20,6.91
273,Honiara,SB,2021-03-25 21:58:16,-9.4333,159.95,83.28,75,45,7.25
274,Longyearbyen,SJ,2021-03-25 21:58:16,78.2186,15.6401,21.2,68,40,14.97
275,Flinders,AU,2021-03-25 21:58:17,-34.5833,150.8552,66.99,82,56,1.01
276,Vila Franca Do Campo,PT,2021-03-25 21:58:17,37.7167,-25.4333,57.2,77,75,5.75
277,Dicabisagan,PH,2021-03-25 21:58:17,17.0818,122.4157,75.94,87,51,4.03
278,Northam,GB,2021-03-25 21:58:18,51.0333,-4.2167,52.0,92,84,10.0
279,Alta Floresta,BR,2021-03-25 21:58:18,-9.8756,-56.0861,72.0,97,96,3.69
280,Necochea,AR,2021-03-25 21:58:18,-38.5473,-58.7368,63.0,94,91,5.01
281,Lugovoy,KZ,2021-03-25 21:58:19,42.9472,72.7644,53.85,80,100,4.5
282,Challans,FR,2021-03-25 21:54:25,46.8436,-1.8749,51.01,87,20,3.44
283,General Roca,AR,2021-03-25 21:58:19,-39.0333,-67.5833,64.4,48,0,3.44
284,Ichinoseki,JP,2021-03-25 21:58:19,38.9167,141.1333,47.28,81,26,1.97
285,Batticaloa,LK,2021-03-25 21:58:20,7.7102,81.6924,79.88,82,100,5.32
286,Kimbe,PG,2021-03-25 21:58:20,-5.5502,150.1429,80.55,81,88,2.53
287,San Policarpo,PH,2021-03-25 21:58:20,12.1791,125.5072,79.54,82,97,13.18
288,Ghanzi,BW,2021-03-25 21:58:21,-21.5667,21.7833,72.23,61,49,6.49
289,Murree,PK,2021-03-25 21:58:21,33.9073,73.393,60.01,77,3,1.01
290,Tiksi,RU,2021-03-25 21:58:21,71.6872,128.8694,5.68,84,100,12.84
291,Thinadhoo,MV,2021-03-25 21:58:22,0.5333,72.9333,83.12,70,23,13.15
292,Tahoua,NE,2021-03-25 21:58:22,14.8888,5.2692,89.6,6,66,9.22
293,Kommunisticheskiy,RU,2021-03-25 21:58:22,61.6789,64.4819,30.61,90,66,10.29
294,Tiebissou,CI,2021-03-25 21:58:23,7.1574,-5.2257,80.6,74,0,4.61
295,Lorengau,PG,2021-03-25 21:58:23,-2.0226,147.2712,82.58,78,96,9.1
296,Cairns,AU,2021-03-25 21:58:23,-16.9167,145.7667,79.0,94,40,1.14
297,Okha,RU,2021-03-25 21:58:24,53.5739,142.9478,14.68,80,100,1.79
298,Kasulu,TZ,2021-03-25 21:58:24,-4.5767,30.1025,64.56,89,100,1.36
299,Pochutla,MX,2021-03-25 21:58:24,15.7432,-96.4661,88.0,45,1,11.5
300,Oga,IT,2021-03-25 21:58:24,46.4631,10.347,48.0,80,61,3.44
301,Breves,BR,2021-03-25 21:58:25,-1.6822,-50.4803,72.19,98,100,2.04
302,Rorvik,NO,2021-03-25 21:58:25,64.8621,11.2373,41.0,93,75,10.36
303,Alyangula,AU,2021-03-25 21:58:25,-13.8483,136.4192,81.48,80,85,6.89
304,Grand Bank,CA,2021-03-25 21:58:26,47.0999,-55.765,41.0,93,75,3.85
305,Vila,PT,2021-03-25 21:58:26,42.0304,-8.1588,48.0,87,99,7.0
306,Lingao,CN,2021-03-25 21:58:26,19.9103,109.6859,72.66,83,100,14.9
307,Banjar,ID,2021-03-25 21:58:27,-8.19,114.9675,78.8,89,20,1.14
308,Vestmannaeyjar,IS,2021-03-25 21:58:27,63.4427,-20.2734,37.74,67,100,6.15
309,Langsa,ID,2021-03-25 21:58:27,4.4683,97.9683,74.19,87,100,2.53
310,Lenine,UA,2021-03-25 21:58:27,45.2986,35.7771,37.22,89,100,10.16
311,Wukari,NG,2021-03-25 21:58:28,7.85,9.7833,84.54,54,99,12.01
312,Mahibadhoo,MV,2021-03-25 21:58:28,3.7833,72.9667,82.06,71,100,7.7
313,Severo-Kurilsk,RU,2021-03-25 21:58:28,50.6789,156.125,29.68,75,100,6.58
314,Ostrovnoy,RU,2021-03-25 21:58:29,68.0531,39.5131,32.0,91,100,10.07
315,Bani,DO,2021-03-25 21:58:29,18.2833,-70.3333,84.2,70,40,11.5
316,Rawson,AR,2021-03-25 21:58:29,-43.3002,-65.1023,66.11,30,0,17.9
317,Muroto,JP,2021-03-25 21:58:29,33.2833,134.15,48.2,93,20,11.5
318,Ornskoldsvik,SE,2021-03-25 21:58:30,63.2909,18.7153,26.6,93,61,4.61
319,Sundargarh,IN,2021-03-25 21:58:30,22.1167,84.0333,73.17,25,18,5.86
320,San Cristobal,VE,2021-03-25 21:58:30,7.7669,-72.225,82.4,69,75,4.61
321,Sterling,US,2021-03-25 21:57:54,39.0062,-77.4286,64.4,77,90,4.61
322,Payson,US,2021-03-25 21:58:31,40.0444,-111.7321,43.0,56,90,13.8
323,Maroantsetra,MG,2021-03-25 21:58:31,-15.4333,49.7333,76.21,90,99,3.38
324,Rocha,UY,2021-03-25 21:58:31,-34.4833,-54.3333,67.21,99,100,6.51
325,Codrington,AU,2021-03-25 21:58:32,-38.2667,141.9667,55.0,88,72,10.31
326,Akyab,MM,2021-03-25 21:58:32,20.15,92.9,76.53,68,22,6.44
327,Pitimbu,BR,2021-03-25 21:58:32,-7.4706,-34.8086,78.8,83,40,8.05
328,Chumphon,TH,2021-03-25 21:58:33,10.3333,98.8333,70.93,95,100,1.92
329,Yining,CN,2021-03-25 21:58:33,29.0361,114.5636,55.8,80,2,1.36
330,San Andres,CO,2021-03-25 21:58:33,12.5847,-81.7006,84.2,70,40,14.97
331,Mount Gambier,AU,2021-03-25 21:58:34,-37.8333,140.7667,51.8,93,90,9.22
332,Caucaia,BR,2021-03-25 21:58:34,-3.7361,-38.6531,79.0,83,75,2.3
333,Solnechnyy,RU,2021-03-25 21:58:34,50.7214,136.6319,23.56,93,98,3.51
334,Nemuro,JP,2021-03-25 21:58:34,43.3236,145.575,34.2,97,100,16.55
335,Akdepe,TM,2021-03-25 21:58:35,42.0551,59.3788,50.0,87,0,6.91
336,Batagay-Alyta,RU,2021-03-25 21:58:35,67.8006,130.4114,-15.21,93,100,0.83
337,Flin Flon,CA,2021-03-25 21:58:35,54.7682,-101.865,26.6,63,90,10.36
338,Karasjok,NO,2021-03-25 21:58:36,69.4719,25.5112,30.2,64,40,2.3
339,Vallenar,CL,2021-03-25 21:58:36,-28.5708,-70.7581,76.46,39,0,4.94
340,Bonavista,CA,2021-03-25 21:58:36,48.6499,-53.1147,50.0,62,100,3.44
341,Kutum,SD,2021-03-25 21:58:37,14.2,24.6667,73.35,16,14,10.0
342,Kruisfontein,ZA,2021-03-25 21:58:37,-34.0033,24.7314,68.0,82,10,5.99
343,Bazarnyye Mataki,RU,2021-03-25 21:58:37,54.8833,49.9333,18.86,99,67,1.68
344,Kayerkan,RU,2021-03-25 21:58:38,69.3497,87.7602,15.67,90,100,10.22
345,Shirochanka,RU,2021-03-25 21:58:38,46.6497,38.3978,34.99,99,100,4.07
346,Chubbuck,US,2021-03-25 21:58:38,42.9208,-112.4661,37.4,87,90,4.61
347,Taunggyi,MM,2021-03-25 21:58:39,20.7833,97.0333,63.61,51,12,2.73
348,Hamadan,IR,2021-03-25 21:58:39,34.7992,48.5146,41.86,45,0,11.72
349,Monze,ZM,2021-03-25 21:58:39,-16.2833,27.4833,62.51,93,6,3.62
350,Seoul,KR,2021-03-25 21:57:54,37.5683,126.9778,41.0,93,90,2.3
351,Huarmey,PE,2021-03-25 21:58:40,-10.0681,-78.1522,74.05,74,84,11.34
352,Egvekinot,RU,2021-03-25 21:58:40,66.3167,-179.1667,-2.92,81,66,6.38
353,San Rafael,AR,2021-03-25 21:58:40,-34.6177,-68.3301,57.34,68,100,16.13
354,Le Havre,FR,2021-03-25 21:58:41,49.4938,0.1077,51.8,66,90,10.36
355,Atambua,ID,2021-03-25 21:58:41,-9.1061,124.8925,73.58,90,97,4.09
356,Deputatskiy,RU,2021-03-25 21:58:41,69.3,139.9,-23.91,98,76,5.01
357,Ulagan,RU,2021-03-25 21:58:42,50.6321,87.9563,25.57,90,100,1.7
358,Port Hardy,CA,2021-03-25 21:58:42,50.6996,-127.4199,46.4,66,20,16.11
359,Tocopilla,CL,2021-03-25 21:58:42,-22.092,-70.1979,71.83,73,26,13.29
360,San Quintin,MX,2021-03-25 21:58:43,30.4833,-115.95,61.02,51,29,13.13
361,Vila Velha,BR,2021-03-25 21:57:07,-20.3297,-40.2925,80.6,74,20,8.05
362,Pangnirtung,CA,2021-03-25 21:58:43,66.1451,-65.7125,-23.8,57,1,3.44
363,Contamana,PE,2021-03-25 21:58:43,-7.3333,-75.0167,80.4,88,84,0.47
364,Puerto Colombia,CO,2021-03-25 21:58:44,10.9878,-74.9547,86.0,66,20,13.8
365,Svetlyy,RU,2021-03-25 21:58:44,54.675,20.1347,37.4,100,20,4.47
366,Amarwara,IN,2021-03-25 21:58:44,22.3,79.1667,72.48,19,0,7.07
367,Zhezkazgan,KZ,2021-03-25 21:58:45,47.8043,67.7144,27.73,81,97,15.7
368,Wasilla,US,2021-03-25 21:58:19,61.5814,-149.4394,33.8,80,90,2.44
369,Sao Joao Da Barra,BR,2021-03-25 21:57:41,-21.6403,-41.0511,80.6,78,0,9.22
370,Dolores,AR,2021-03-25 21:58:45,-36.3132,-57.6792,66.33,97,100,5.44
371,Marsa Matruh,EG,2021-03-25 21:58:46,31.3525,27.2453,53.6,82,40,6.91
372,Qeshm,IR,2021-03-25 21:58:46,26.9581,56.2719,75.2,73,3,6.91
373,Chulym,RU,2021-03-25 21:58:46,55.0997,80.9572,15.6,98,94,6.64
374,Berberati,CF,2021-03-25 21:58:47,4.2612,15.7922,68.32,88,29,1.74
375,Ust-Kuyga,RU,2021-03-25 21:58:47,70.0167,135.6,-20.52,99,100,7.14
376,Ichinohe,JP,2021-03-25 21:58:47,40.2069,141.3017,41.0,93,40,6.91
377,Colares,PT,2021-03-25 21:58:48,38.7992,-9.4469,55.0,76,100,14.0
378,Ginir,ET,2021-03-25 21:58:48,7.1333,40.7,58.87,37,1,4.83
379,Lac-Megantic,CA,2021-03-25 21:58:48,45.5834,-70.8823,69.8,40,20,12.66
380,Lata,PT,2021-03-25 21:58:48,40.1629,-8.3327,53.01,85,100,4.0
381,Coihaique,CL,2021-03-25 21:58:49,-45.5752,-72.0662,62.6,27,0,8.05
382,Tuatapere,NZ,2021-03-25 21:58:49,-46.1333,167.6833,57.99,96,90,1.01
383,Lagunillas,VE,2021-03-25 21:58:49,10.1301,-71.2595,84.2,67,64,4.76
384,Nainpur,IN,2021-03-25 21:58:50,22.4333,80.1167,74.57,23,0,4.61
385,Westport,US,2021-03-25 21:58:50,41.1415,-73.3579,66.99,77,1,4.61
386,Kiruna,SE,2021-03-25 21:58:50,67.8557,20.2251,19.4,93,13,4.61
387,Jinchang,CN,2021-03-25 21:58:51,38.4953,102.1739,43.18,35,76,8.7
388,Galveston,US,2021-03-25 21:58:51,29.3669,-94.9669,80.01,44,1,4.61
389,Zaysan,KZ,2021-03-25 21:58:51,47.4667,84.8667,36.14,83,100,5.57
390,Murray Bridge,AU,2021-03-25 21:58:51,-35.1167,139.2667,57.0,90,97,8.55
391,Garachine,PA,2021-03-25 21:58:52,8.0647,-78.3628,82.87,73,47,6.24
392,Vaitape,PF,2021-03-25 21:58:52,-16.5167,-151.75,83.39,73,72,20.56
393,Hamilton,US,2021-03-25 21:54:06,39.1834,-84.5333,66.2,68,90,9.22
394,Lebedinyy,RU,2021-03-25 21:58:53,58.5167,125.5167,10.11,80,100,9.55
395,Requena,ES,2021-03-25 21:58:23,39.4883,-1.1004,54.0,84,100,3.11
396,La Roda,ES,2021-03-25 21:54:53,39.2167,-2.15,55.0,66,0,4.61
397,Abu Samrah,SY,2021-03-25 21:58:53,35.3029,37.1841,47.66,77,92,11.86
398,Kathmandu,NP,2021-03-25 21:56:41,27.7167,85.3167,53.6,58,20,4.61
399,Nanortalik,GL,2021-03-25 21:58:53,60.1432,-45.2371,14.38,61,77,19.62
400,Coquimbo,CL,2021-03-25 21:53:59,-29.9533,-71.3436,64.4,63,0,12.66
401,Macon,US,2021-03-25 21:58:54,39.8667,-88.9668,55.4,94,90,11.5
402,Nicoya,CR,2021-03-25 21:58:54,10.1483,-85.452,93.2,36,40,14.97
403,Makakilo City,US,2021-03-25 21:58:55,21.3469,-158.0858,78.8,83,20,4.61
404,Shenkursk,RU,2021-03-25 21:58:55,62.1091,42.896,34.47,83,100,9.37
405,Blyznyuky,UA,2021-03-25 21:58:55,48.8578,36.5551,33.85,93,100,8.3
406,Fukue,JP,2021-03-25 21:58:55,32.6881,128.8419,58.95,53,63,7.31
407,Pevek,RU,2021-03-25 21:58:56,69.7008,170.3133,-22.34,97,95,3.4
408,Moranbah,AU,2021-03-25 21:58:56,-22.0016,148.0466,74.35,56,0,12.3
409,Kalmunai,LK,2021-03-25 21:58:56,7.4167,81.8167,78.49,85,99,4.16
410,Troitsko-Pechorsk,RU,2021-03-25 21:58:57,62.7084,56.1964,32.14,87,100,8.23
411,Lasa,IT,2021-03-25 21:58:57,46.6166,10.7002,48.99,70,0,4.61
412,Lodeynoye Pole,RU,2021-03-25 21:58:57,60.726,33.5531,33.58,99,100,4.25
413,Atherton,GB,2021-03-25 21:58:57,53.5237,-2.4935,51.01,62,63,4.0
414,Ngunguru,NZ,2021-03-25 21:58:58,-35.6167,174.5,68.0,84,94,10.0
415,Penzance,GB,2021-03-25 21:58:58,50.1186,-5.5371,50.0,100,75,21.85
416,Sechura,PE,2021-03-25 21:58:58,-5.5569,-80.8222,82.44,53,29,15.64
417,Ust-Nera,RU,2021-03-25 21:58:59,64.5667,143.2,-13.45,97,79,3.87
418,Betanzos,ES,2021-03-25 21:58:59,43.2804,-8.2147,51.8,76,75,2.55
419,Verkh-Chebula,RU,2021-03-25 21:58:59,56.0308,87.6218,25.75,98,100,1.48
420,Tagusao,PH,2021-03-25 21:59:00,9.1924,117.8141,78.94,82,100,4.0
421,Taiyuan,CN,2021-03-25 21:59:00,37.8694,112.5603,50.0,81,90,2.24
422,Manama,BH,2021-03-25 21:59:00,26.2154,50.5832,78.8,57,0,2.3
423,Brae,GB,2021-03-25 21:59:01,60.3964,-1.353,46.4,87,100,14.97
424,Shingu,JP,2021-03-25 21:59:01,33.7333,135.9833,49.05,83,0,6.71
425,Korla,CN,2021-03-25 21:59:01,41.7597,86.1469,49.46,37,1,3.36
426,Pauini,BR,2021-03-25 21:59:02,-7.7136,-66.9764,79.18,78,85,2.91
427,Havelock,US,2021-03-25 21:59:02,34.8791,-76.9013,73.4,73,1,13.8
428,Constitucion,CL,2021-03-25 21:59:02,-35.3333,-72.4167,59.05,67,0,16.15
429,Ahipara,NZ,2021-03-25 21:59:03,-35.1667,173.1667,68.92,62,100,9.08
430,Dubbo,AU,2021-03-25 21:59:03,-32.25,148.6167,55.4,62,3,3.18
431,Niquelandia,BR,2021-03-25 21:59:03,-14.4739,-48.4597,73.69,67,81,3.6
432,Domoni,KM,2021-03-25 21:59:03,-12.2569,44.5319,80.13,80,34,1.61
433,Grootfontein,NA,2021-03-25 21:59:04,-19.5667,18.1167,66.2,88,49,3.44
434,Muravlenko,RU,2021-03-25 21:59:04,63.7898,74.523,22.77,95,100,19.08
435,Vendome,FR,2021-03-25 21:59:04,47.8,1.0667,46.4,87,0,4.61
436,Krutinka,RU,2021-03-25 21:59:05,56.0055,71.5113,19.33,95,63,11.81
437,Qujing,CN,2021-03-25 21:59:05,25.4833,103.7833,57.0,57,5,1.01
438,Turayf,SA,2021-03-25 21:59:05,31.6725,38.6637,50.0,57,0,6.91
439,Muyezerskiy,RU,2021-03-25 21:59:06,63.9333,31.65,28.33,94,10,5.41
440,Tura,IN,2021-03-25 21:59:06,25.5198,90.2201,70.5,21,3,2.15
441,Manzini,SZ,2021-03-25 21:59:06,-26.25,31.5,63.54,98,87,1.68
442,Muzhi,RU,2021-03-25 21:59:07,65.3667,64.6667,29.19,79,16,15.64
443,La Asuncion,VE,2021-03-25 21:59:07,11.0333,-63.8628,77.47,79,11,15.68
444,Doka,SD,2021-03-25 21:59:07,13.5167,35.7667,91.13,24,100,16.2
445,Demir Kapija,MK,2021-03-25 21:59:07,41.405,22.2489,39.99,99,82,4.0
446,Semnan,IR,2021-03-25 21:59:08,35.5729,53.3971,59.83,33,0,5.82
447,Zhemtala,RU,2021-03-25 21:59:08,43.2841,43.6559,35.6,87,90,4.47
448,Lumut,MY,2021-03-25 21:59:08,4.2323,100.6298,75.2,100,20,3.98
449,Jeremie,HT,2021-03-25 21:59:09,18.65,-74.1167,79.57,75,35,2.98
450,Biak,ID,2021-03-25 21:59:09,-0.9131,122.8766,76.59,83,54,1.25
451,Zhigansk,RU,2021-03-25 21:59:09,66.7697,123.3711,1.49,95,100,20.56
452,Porto Novo,BJ,2021-03-25 21:59:10,6.4965,2.6036,82.4,78,20,6.91
453,Nishihara,JP,2021-03-25 21:59:10,26.1842,127.7558,69.8,77,75,10.36
454,Belaya Gora,RU,2021-03-25 21:59:10,68.5333,146.4167,-22.27,99,75,2.37
455,Kasangulu,CD,2021-03-25 21:59:11,-4.5911,15.1708,77.0,83,20,6.91
456,Newport,GB,2021-03-25 21:59:11,51.5877,-2.9984,51.01,87,76,1.01
457,Key West,US,2021-03-25 21:59:11,24.5557,-81.7826,82.4,74,1,14.97
458,Aranos,NA,2021-03-25 21:59:12,-24.1333,19.1167,71.56,33,13,14.38
459,Homer,US,2021-03-25 21:59:12,59.6425,-151.5483,39.2,81,90,17.27
460,San Antonio,US,2021-03-25 21:58:31,29.4241,-98.4936,79.0,27,1,10.36
461,Villa De Reyes,MX,2021-03-25 21:59:13,21.8,-100.9333,82.4,5,75,6.91
462,Goure,NE,2021-03-25 21:59:13,13.9835,10.2704,81.0,8,8,8.99
463,Awbari,LY,2021-03-25 21:59:13,26.5921,12.7805,55.83,31,0,6.2
464,Fernley,US,2021-03-25 21:59:13,39.608,-119.2518,48.0,29,92,13.0
465,Manoel Urbano,BR,2021-03-25 21:59:14,-8.8389,-69.2597,81.07,80,69,2.77
466,Zonguldak,TR,2021-03-25 21:59:14,41.25,31.8333,30.06,98,100,4.41
467,Mantua,IT,2021-03-25 21:59:14,45.1667,10.7833,48.0,70,16,1.99
468,Kunya,NG,2021-03-25 21:59:15,12.2233,8.5325,78.8,24,98,2.3
469,Mombasa,KE,2021-03-25 21:59:15,-4.0547,39.6636,80.49,77,92,5.23
470,Ambilobe,MG,2021-03-25 21:59:15,-13.2,49.05,74.14,96,100,2.01
471,Petrivka,UA,2021-03-25 21:59:16,46.9695,30.9591,33.8,100,90,8.95
472,Voyvozh,RU,2021-03-25 21:59:16,62.892,54.9635,31.19,88,100,9.31
473,Paka,MY,2021-03-25 21:59:16,4.6374,103.4368,77.0,94,100,2.3
474,Berlevag,NO,2021-03-25 21:59:17,70.8578,29.0864,33.8,60,75,24.16
475,Saryozek,KZ,2021-03-25 21:59:17,44.3583,77.9753,51.96,41,100,10.29
476,Otradnoye,RU,2021-03-25 21:59:17,59.7775,30.8181,35.6,87,57,8.95
477,Athabasca,CA,2021-03-25 21:59:18,54.7169,-113.2854,23.0,54,90,4.61
478,Bambous Virieux,MU,2021-03-25 21:59:18,-20.3428,57.7575,75.2,94,40,12.66
479,Bandarbeyla,SO,2021-03-25 21:59:18,9.4942,50.8122,77.59,69,28,9.24
480,Karoi,ZW,2021-03-25 21:59:18,-16.8099,29.6925,60.49,94,6,3.65
481,Talnakh,RU,2021-03-25 21:59:19,69.4865,88.3972,15.15,94,100,11.07
482,Mount Isa,AU,2021-03-25 21:59:19,-20.7333,139.5,75.2,38,11,6.91
483,Poum,NC,2021-03-25 21:59:19,-20.2333,164.0167,80.53,71,27,21.05
484,Brownsville,US,2021-03-25 21:59:20,25.9018,-97.4975,80.6,36,1,16.11
485,Joutseno,FI,2021-03-25 21:59:20,61.118,28.5076,28.99,92,52,5.12
486,Portland,US,2021-03-25 21:57:49,45.5234,-122.6762,53.01,58,75,8.05
487,Karatu,TZ,2021-03-25 21:59:20,-3.3333,35.6667,63.75,76,93,1.68
488,Boyolangu,ID,2021-03-25 21:59:21,-8.1181,111.8935,74.68,90,100,1.66
489,Phan Thiet,VN,2021-03-25 21:59:21,10.9333,108.1,74.21,84,99,8.28
490,Sakata,JP,2021-03-25 21:59:21,38.9167,139.855,48.0,87,49,10.4
491,Verkhnevilyuysk,RU,2021-03-25 21:59:22,63.4453,120.3167,10.96,92,100,6.11
492,Port Moresby,PG,2021-03-25 21:56:04,-9.4431,147.1797,77.0,94,75,3.44
493,Grinnell,US,2021-03-25 21:59:22,41.743,-92.7224,44.6,93,90,3.44
494,Uray,RU,2021-03-25 21:59:22,60.1247,64.7758,33.57,94,100,9.84
495,Viloco,BO,2021-03-25 21:59:23,-16.95,-67.55,51.76,69,46,5.46
496,Karratha,AU,2021-03-25 21:59:23,-20.7377,116.8463,79.75,65,35,4.99
497,Sampit,ID,2021-03-25 21:59:23,-2.5333,112.95,73.98,98,100,1.61
498,Vanimo,PG,2021-03-25 21:59:24,-2.6741,141.3028,77.45,89,100,4.38
499,Abha,SA,2021-03-25 21:56:42,18.2164,42.5053,64.4,55,0,5.75
500,Ban Tak,TH,2021-03-25 21:59:24,17.0432,99.0813,79.65,62,23,4.59
501,Trapani,IT,2021-03-25 21:59:24,37.8333,12.6667,50.0,93,0,3.44
502,Kiunga,PG,2021-03-25 21:59:25,-6.1219,141.2906,74.01,99,100,1.3
503,Elizabeth City,US,2021-03-25 21:59:25,36.2946,-76.2511,75.99,60,1,10.36
504,Rio Gallegos,AR,2021-03-25 21:56:30,-51.6226,-69.2181,60.8,41,20,28.77
505,Brunico,IT,2021-03-25 21:59:25,46.7958,11.9364,37.99,68,100,2.17
506,Morant Bay,JM,2021-03-25 21:59:26,17.8815,-76.4093,87.01,65,20,24.16
507,Bereda,ES,2021-03-25 21:59:26,43.2686,-7.5406,46.99,92,100,5.01
508,Houston,US,2021-03-25 21:57:55,29.7633,-95.3633,80.01,29,1,12.66
509,Griffith,US,2021-03-25 21:59:26,41.5284,-87.4237,45.0,76,40,14.97
510,Kenai,US,2021-03-25 21:59:27,60.5544,-151.2583,33.8,86,90,5.75
511,Lichinga,MZ,2021-03-25 21:59:27,-13.3128,35.2406,66.2,94,75,3.44
512,Semirom,IR,2021-03-25 21:59:28,31.4167,51.5667,48.69,54,4,26.28
513,Malakal,SS,2021-03-25 21:59:28,9.5334,31.6605,90.39,15,43,2.01
514,Springfield,US,2021-03-25 21:59:06,37.2153,-93.2982,50.0,93,90,11.5
515,Paducah,US,2021-03-25 21:59:29,37.0834,-88.6001,68.0,77,90,8.05
516,Swadlincote,GB,2021-03-25 21:59:30,52.774,-1.5574,48.99,66,20,12.66
517,Orange Cove,US,2021-03-25 21:59:30,36.6244,-119.3137,62.6,48,21,5.75
518,Bosobolo,CD,2021-03-25 21:59:30,4.1833,19.9,72.63,82,98,5.53
519,Strezhevoy,RU,2021-03-25 21:59:31,60.7333,77.5889,24.8,86,0,8.95
520,Chifeng,CN,2021-03-25 21:59:31,42.2683,118.9636,47.05,41,100,5.82
521,Hasaki,JP,2021-03-25 21:59:31,35.7333,140.8333,44.6,100,90,1.14
522,Talara,PE,2021-03-25 21:59:32,-4.5772,-81.2719,74.79,73,18,15.03
523,Urumqi,CN,2021-03-25 21:58:04,43.801,87.6005,37.4,70,0,8.95
524,Izvestkovyy,RU,2021-03-25 21:59:32,48.9833,131.55,25.93,95,99,1.9
525,Papenburg,DE,2021-03-25 21:59:32,53.0667,7.4,41.0,93,98,1.14
526,Puerto Morazan,NI,2021-03-25 21:59:33,12.8504,-87.1717,95.0,41,1,6.91
527,Williston,US,2021-03-25 21:59:33,48.147,-103.618,55.0,39,100,5.01
528,El Sauzal,MX,2021-03-25 21:59:33,31.9,-116.6833,62.01,69,46,5.99
529,Salto,UY,2021-03-25 21:59:34,-31.3833,-57.9667,73.4,94,90,11.5
530,Erzin,TR,2021-03-25 21:59:34,36.9559,36.2,55.0,52,97,17.0
531,Sherlovaya Gora,RU,2021-03-25 21:59:34,50.5667,116.25,29.89,70,100,14.74
532,Pestovo,RU,2021-03-25 21:59:35,58.5938,35.8024,34.59,98,97,5.53
533,Bilma,NE,2021-03-25 21:59:35,18.6853,12.9164,70.12,11,0,14.32
534,Onega,RU,2021-03-25 21:59:35,63.9061,38.1404,30.63,94,31,9.44
535,Tiarei,PF,2021-03-25 21:59:35,-17.5333,-149.3333,89.6,58,40,9.22
536,Buraydah,SA,2021-03-25 21:59:36,26.326,43.975,69.8,35,0,18.41
537,Kodinsk,RU,2021-03-25 21:59:36,58.6881,99.1844,9.0,99,100,3.0
538,Cerveteri,IT,2021-03-25 21:59:36,41.9926,12.0924,51.01,93,0,2.3
539,Saint-Joseph,RE,2021-03-25 21:59:37,-21.3667,55.6167,77.0,83,90,5.75
540,Manggar,ID,2021-03-25 21:59:37,-2.8833,108.2667,77.61,88,100,4.65
541,Melilla,ES,2021-03-25 21:59:37,35.2937,-2.9383,57.2,54,0,1.14
542,Lodja,CD,2021-03-25 21:59:38,-3.4833,23.4333,67.69,97,78,1.03
543,Ritchie,ZA,2021-03-25 21:59:38,-29.038,24.6028,55.4,94,2,4.61
544,Aquin,HT,2021-03-25 21:59:38,18.2833,-73.4,79.99,73,41,6.31
545,Linqiong,CN,2021-03-25 21:59:39,30.4159,103.4609,61.0,82,40,11.18
546,Asyut,EG,2021-03-25 21:59:39,27.181,31.1837,57.2,51,0,10.36
